var shelter ={
"type": "FeatureCollection",
"name": "shelters",
"crs": { "type": "name", "properties": { "name": "urn:ogc:def:crs:OGC:1.3:CRS84" } },
"features": [
{ "type": "Feature", "properties": { "ID": 10, "Name": "Hope Beyond Transitional Center", "County": "Kajiado ", "Operator": "Dorcas Parit ", "Role": "Director ", "Telephone": "0725 501 002 ", "Email": "director@hopebeyond.org", "Latitude": -1.841345, "Longitude": 36.789311 }, "geometry": { "type": "Point", "coordinates": [ 36.789311, -1.841345 ] } },
{ "type": "Feature", "properties": { "ID": 37, "Name": "Undugu - Children Place of Safety", "County": "Kajiado ", "Operator": "Buthaina Ibrahim Mnawa ", "Role": "Program Manager", "Telephone": "0722 288 615 ", "Email": "buthaina@undugukenya.org", "Latitude": -1.856157, "Longitude": 37.150068 }, "geometry": { "type": "Point", "coordinates": [ 37.150068, -1.856157 ] } },
{ "type": "Feature", "properties": { "ID": 38, "Name": "Usikimye Safe Haven ", "County": "Kiambu", "Operator": "Stella Khachina", "Role": "Director", "Telephone": "0718 158 400", "Email": "usikimye@gmail.com ", "Latitude": -0.879961, "Longitude": 36.752264 }, "geometry": { "type": "Point", "coordinates": [ 36.752264, -0.879961 ] } },
{ "type": "Feature", "properties": { "ID": 12, "Name": "Jirani Centre and Safehouse", "County": "Kiambu ", "Operator": "Sr. Veronica Thiga ", "Role": "Director", "Telephone": "0722 780 092", "Email": "jiranicentre2019@yahoo.com", "Latitude": -1.143291, "Longitude": 36.544115 }, "geometry": { "type": "Point", "coordinates": [ 36.544115, -1.143291 ] } },
{ "type": "Feature", "properties": { "ID": 13, "Name": "Action for Children Temporary Rescure Centre", "County": "Kiambu ", "Operator": "John Muiruri ", "Role": "Director ", "Telephone": "0714 038 285 ", "Email": "Kenyadirector@actionchildren.or.ke", "Latitude": -1.107875, "Longitude": 36.900638 }, "geometry": { "type": "Point", "coordinates": [ 36.900638, -1.107875 ] } },
{ "type": "Feature", "properties": { "ID": 34, "Name": "Talia Agler Girls Shelter (TAGS) ", "County": "Kiambu ", "Operator": "Edith Murogo ", "Role": "Executive ", "Telephone": "0722 722 871", "Email": "Info@cdtd.org", "Latitude": -1.112404, "Longitude": 37.14833 }, "geometry": { "type": "Point", "coordinates": [ 37.14833, -1.112404 ] } },
{ "type": "Feature", "properties": { "ID": 2, "Name": "Community Forum for Advanced Sustainable Development (COFAS)", "County": "Kisumu ", "Operator": "Martin Oloo ", "Role": "Programmes Director", "Telephone": "0703 467 479", "Email": "info@cofaskenya.or.ke ", "Latitude": -0.135225, "Longitude": 34.50592 }, "geometry": { "type": "Point", "coordinates": [ 34.50592, -0.135225 ] } },
{ "type": "Feature", "properties": { "ID": 8, "Name": "Freedom House Safe Space (ran by KMET)", "County": "Kisumu ", "Operator": "Janepher Musuya ", "Role": "Director", "Telephone": "0732 801 396", "Email": "j.musuya@kmet.co.ke ", "Latitude": -0.184631, "Longitude": 34.869587 }, "geometry": { "type": "Point", "coordinates": [ 34.869587, -0.184631 ] } },
{ "type": "Feature", "properties": { "ID": 15, "Name": "Kiota Young Mothers ", "County": "Kwale ", "Operator": "Dr. Jean Kagia ", "Role": "Chair, PLMT ", "Telephone": "0722 377 772 ", "Email": "jeank@jeanliz.co.ke", "Latitude": -3.792851, "Longitude": 39.23477 }, "geometry": { "type": "Point", "coordinates": [ 39.23477, -3.792851 ] } },
{ "type": "Feature", "properties": { "ID": 11, "Name": "Imara Girls International ", "County": "Laikipia ", "Operator": "Carol Erickson ", "Role": "Director ", "Telephone": "0724 779 101 ", "Email": "Cerickson19@hotmail.com", "Latitude": 0.347055, "Longitude": 37.020437 }, "geometry": { "type": "Point", "coordinates": [ 37.020437, 0.347055 ] } },
{ "type": "Feature", "properties": { "ID": 28, "Name": "One More Day for Children Girls Safe House", "County": "Laikipia ", "Operator": "Hellen Gathogo ", "Role": "Executive Director", "Telephone": "0721 358 271 ", "Email": "onemoreday4kids@gmail.com", "Latitude": -0.028527, "Longitude": 36.947297 }, "geometry": { "type": "Point", "coordinates": [ 36.947297, -0.028527 ] } },
{ "type": "Feature", "properties": { "ID": 21, "Name": "Mully Children Family (MCF) ", "County": "Machakos ", "Operator": "Dr. Mulli ", "Role": " Executive director", "Telephone": "0712 657 905 ", "Email": "mcf@mullychildrensfamily.org", "Latitude": -1.575383, "Longitude": 37.684172 }, "geometry": { "type": "Point", "coordinates": [ 37.684172, -1.575383 ] } },
{ "type": "Feature", "properties": { "ID": 25, "Name": "New Scent Centre  ", "County": "Machakos ", "Operator": "Florah Mwikali ", "Role": "Director ", "Telephone": "0722 732 058 ", "Email": "kanyole@gmail.com", "Latitude": -1.341935, "Longitude": 37.362544 }, "geometry": { "type": "Point", "coordinates": [ 37.362544, -1.341935 ] } },
{ "type": "Feature", "properties": { "ID": 20, "Name": "Makueni  County Shelter", "County": "Makueni", "Operator": "Dianah Muli ", "Role": "Chief Officer, Gender, Children and SS", "Telephone": "0722 774 145", "Email": "mulidianah@gmail.com", "Latitude": -2.482698, "Longitude": 38.257083 }, "geometry": { "type": "Point", "coordinates": [ 38.257083, -2.482698 ] } },
{ "type": "Feature", "properties": { "ID": 36, "Name": "Ripples International Tumaini Centre", "County": "Meru ", "Operator": "Mercy Chidi Baidoo ", "Role": "Executive Director", "Telephone": "0724 370 653", "Email": "tumainihod@ripplesintl.or.ke", "Latitude": 0.236151, "Longitude": 37.850979 }, "geometry": { "type": "Point", "coordinates": [ 37.850979, 0.236151 ] } },
{ "type": "Feature", "properties": { "ID": 35, "Name": "Trace Kenya", "County": "Mombasa", "Operator": "Paul Adhoch", "Role": "Director", "Telephone": "0722 499 302", "Email": "info@tracekenya.org ", "Latitude": -4.050046, "Longitude": 39.687444 }, "geometry": { "type": "Point", "coordinates": [ 39.687444, -4.050046 ] } },
{ "type": "Feature", "properties": { "ID": 16, "Name": "Mahali Pa Usalama (MPU) ", "County": "Mombasa ", "Operator": "Sr. Emiliana Njoki ", "Role": "Program ", "Telephone": "0723 379 985 ", "Email": "mpu@mombasacatholic.org", "Latitude": -4.018939, "Longitude": 39.613951 }, "geometry": { "type": "Point", "coordinates": [ 39.613951, -4.018939 ] } },
{ "type": "Feature", "properties": { "ID": 27, "Name": "Okoa Sasa ", "County": "Mombasa ", "Operator": "Grace Odembo ", "Role": "Director ", "Telephone": "0724 173 188 ", "Email": "okoasasa@gmail.com", "Latitude": -4.034596, "Longitude": 39.686804 }, "geometry": { "type": "Point", "coordinates": [ 39.686804, -4.034596 ] } },
{ "type": "Feature", "properties": { "ID": 14, "Name": "Kiota Rescue Homes ", "County": "Muranga", "Operator": "Dr. Jean Kagia ", "Role": "Chair, PLMT ", "Telephone": "0722 377 772 ", "Email": "jeank@jeanliz.co.ke", "Latitude": -0.71531, "Longitude": 37.201344 }, "geometry": { "type": "Point", "coordinates": [ 37.201344, -0.71531 ] } },
{ "type": "Feature", "properties": { "ID": 22, "Name": "Mediva Wellness Center", "County": "Muranga", "Operator": "Elvis Osimbi", "Role": "Director", "Telephone": "0721 423 888", "Email": "elvis@medivawellness.org", "Latitude": -0.856223, "Longitude": 36.935691 }, "geometry": { "type": "Point", "coordinates": [ 36.935691, -0.856223 ] } },
{ "type": "Feature", "properties": { "ID": 29, "Name": "Pendekezo Letu ", "County": "Nairobi", "Operator": "Sarah Mbira ", "Role": "Executive ", "Telephone": "0721 927 999 ", "Email": "pendekezoletu@gmail.com", "Latitude": -1.340819, "Longitude": 36.684212 }, "geometry": { "type": "Point", "coordinates": [ 36.684212, -1.340819 ] } },
{ "type": "Feature", "properties": { "ID": 3, "Name": "Destiny Rescue Centre ", "County": "Nairobi ", "Operator": "Florence Muange ", "Role": "Director ", "Telephone": "0720 240 330   ", "Email": "Florence.muange@gmail.com", "Latitude": -1.29754, "Longitude": 36.930407 }, "geometry": { "type": "Point", "coordinates": [ 36.930407, -1.29754 ] } },
{ "type": "Feature", "properties": { "ID": 9, "Name": "GCN - Salama Centre ", "County": "Nairobi ", "Operator": "Damaris Karungo ", "Role": "Program ", "Telephone": "0725 348 845 ", "Email": "damakarungo@gmail.com", "Latitude": -1.287999, "Longitude": 36.756477 }, "geometry": { "type": "Point", "coordinates": [ 36.756477, -1.287999 ] } },
{ "type": "Feature", "properties": { "ID": 17, "Name": "Maisha Girls Safe House ", "County": "Nairobi ", "Operator": "Florence Keya ", "Role": "Director ", "Telephone": "0726 304 569 ", "Email": "mgirlssafehouse@gmail.com", "Latitude": -1.280663, "Longitude": 37.053439 }, "geometry": { "type": "Point", "coordinates": [ 37.053439, -1.280663 ] } },
{ "type": "Feature", "properties": { "ID": 19, "Name": "Mary Faith Children Centre  ", "County": "Nairobi ", "Operator": "Mary Njeri ", "Role": "Director ", "Telephone": "0724 374 487", "Email": "maryfaithchildren@gmail.com", "Latitude": -1.243502, "Longitude": 37.07086 }, "geometry": { "type": "Point", "coordinates": [ 37.07086, -1.243502 ] } },
{ "type": "Feature", "properties": { "ID": 24, "Name": "Nest Shelter for Abused Girls  ", "County": "Nairobi ", "Operator": "Lucy Njuguna ", "Role": "Manager ", "Telephone": "0725 765 978 ", "Email": "andutat80@gmail.com", "Latitude": -1.330284, "Longitude": 36.716789 }, "geometry": { "type": "Point", "coordinates": [ 36.716789, -1.330284 ] } },
{ "type": "Feature", "properties": { "ID": 26, "Name": "Njoo Dada  ", "County": "Nairobi ", "Operator": "Lunar Odawa ", "Role": "Director ", "Telephone": "0720 149 568", "Email": "lunar.odawa@gmail.com", "Latitude": -1.253784, "Longitude": 36.955803 }, "geometry": { "type": "Point", "coordinates": [ 36.955803, -1.253784 ] } },
{ "type": "Feature", "properties": { "ID": 30, "Name": "Rescue Dada ", "County": "Nairobi ", "Operator": "Mary Gatitu ", "Role": "Director ", "Telephone": "0724 233 626 ", "Email": "rescuedadacentre@gmail.com", "Latitude": -1.348505, "Longitude": 36.72992 }, "geometry": { "type": "Point", "coordinates": [ 36.72992, -1.348505 ] } },
{ "type": "Feature", "properties": { "ID": 33, "Name": "Shining Hope for Communities (Shofco)", "County": "Nairobi ", "Operator": "Caroline Sakwa ", "Role": "Program Director", "Telephone": "0711 812 930 ", "Email": "csakwa@shofco.org", "Latitude": -1.403264, "Longitude": 36.882882 }, "geometry": { "type": "Point", "coordinates": [ 36.882882, -1.403264 ] } },
{ "type": "Feature", "properties": { "ID": 39, "Name": "Wings of Compassion Rescue Homes", "County": "Nairobi ", "Operator": "Rev. Danshire Njoroge ", "Role": "Director ", "Telephone": "0722 169 994 ", "Email": "Wingsof2012@gmail.com", "Latitude": -1.232886, "Longitude": 36.894292 }, "geometry": { "type": "Point", "coordinates": [ 36.894292, -1.232886 ] } },
{ "type": "Feature", "properties": { "ID": 40, "Name": "Woman's Hope Center ", "County": "Nairobi ", "Operator": "Consolata Waithaka ", "Role": "Director ", "Telephone": "0737 333 741 ", "Email": "consoandgirls@gmail.com", "Latitude": -1.404066, "Longitude": 36.908355 }, "geometry": { "type": "Point", "coordinates": [ 36.908355, -1.404066 ] } },
{ "type": "Feature", "properties": { "ID": 18, "Name": "Maisha Talita Safe House ", "County": "Nairobi  ", "Operator": "Yvonne Njoka ", "Role": "Program ", "Telephone": "0732 235 500 ", "Email": "maishatalitakenya@gmail.com", "Latitude": -1.202063, "Longitude": 36.856447 }, "geometry": { "type": "Point", "coordinates": [ 36.856447, -1.202063 ] } },
{ "type": "Feature", "properties": { "ID": 4, "Name": "Emily Martin Rescue Center ", "County": "Nakuru", "Operator": "Esther Nderitu ", "Role": "Director", "Telephone": "0710 955 889", "Email": "esther@nowkenya.org", "Latitude": -0.117452, "Longitude": 36.122763 }, "geometry": { "type": "Point", "coordinates": [ 36.122763, -0.117452 ] } },
{ "type": "Feature", "properties": { "ID": 7, "Name": "Frolics of Hope Africa", "County": "Nakuru", "Operator": "Florah Mugao ", "Role": "CEO\/Director", "Telephone": "0721 599 174", "Email": "florah.mugao209@gmail.com  ", "Latitude": 0.149122, "Longitude": 36.237205 }, "geometry": { "type": "Point", "coordinates": [ 36.237205, 0.149122 ] } },
{ "type": "Feature", "properties": { "ID": 1, "Name": "Agatha Amani House ", "County": "Nakuru ", "Operator": "Nyakio Kaniu-Lake ", "Role": "Director ", "Telephone": "0713 482 144", "Email": "nyakio@empoweringmindsinternati onal.org", "Latitude": -0.446465, "Longitude": 36.18342 }, "geometry": { "type": "Point", "coordinates": [ 36.18342, -0.446465 ] } },
{ "type": "Feature", "properties": { "ID": 6, "Name": "Filadephia Women in Crisis Centre(FWCC)", "County": "Nakuru ", "Operator": "Margaret Muchendu ", "Role": "Program Manager", "Telephone": "0720 995 189 ", "Email": "margietich2@yahoo.com", "Latitude": -0.965445, "Longitude": 36.479632 }, "geometry": { "type": "Point", "coordinates": [ 36.479632, -0.965445 ] } },
{ "type": "Feature", "properties": { "ID": 32, "Name": "Serene Haven Kenya ", "County": "Nyeri ", "Operator": "Elizabeth Muriuki ", "Role": "Director ", "Telephone": "0706 712 292 ", "Email": "info@serenehavenkenya.org", "Latitude": -0.315119, "Longitude": 37.20408 }, "geometry": { "type": "Point", "coordinates": [ 37.20408, -0.315119 ] } },
{ "type": "Feature", "properties": { "ID": 23, "Name": "Nainyoie Safe House ", "County": "Samburu ", "Operator": "Irene Serina Leshore ", "Role": "Director ", "Telephone": "0720 857 285 ", "Email": "luccinda20@yahoo.com", "Latitude": 1.636054, "Longitude": 36.668192 }, "geometry": { "type": "Point", "coordinates": [ 36.668192, 1.636054 ] } },
{ "type": "Feature", "properties": { "ID": 31, "Name": "Samburu Girls Foundation  ", "County": "Samburu ", "Operator": "Wanjiru Wahome ", "Role": "Program ", "Telephone": "0723 582 535 ", "Email": "wanjiru@samburugirls.foundation", "Latitude": 0.909889, "Longitude": 36.586422 }, "geometry": { "type": "Point", "coordinates": [ 36.586422, 0.909889 ] } },
{ "type": "Feature", "properties": { "ID": 5, "Name": "Enlightened Generation International", "County": "Tharaka Nithi", "Operator": "Kelly Rwigi", "Role": "Director", "Telephone": "0725 009 216", "Email": "Enlightenedgeneration01@gmail.com", "Latitude": -0.18417, "Longitude": 37.77586 }, "geometry": { "type": "Point", "coordinates": [ 37.77586, -0.18417 ] } }
]
}
